,City,Country,Date,Lat,Lng,Max Temp,Humidity,Cloudiness,Wind Speed,Current Description,Rain inches (last 3 hrs),Snow inches (last 3 hrs)
0,Port Lincoln,AU,2020-02-22 20:18:08,-34.73,135.87,64.6,82,0,6.15,clear sky,0.0,0.0
1,Ugoofaaru,MV,2020-02-22 20:18:08,5.67,73.0,82.83,77,63,15.12,broken clouds,0.0,0.0
2,Kapaa,US,2020-02-22 20:13:40,22.08,-159.32,75.2,78,90,10.29,overcast clouds,0.0,0.0
3,Punta Arenas,CL,2020-02-22 20:18:08,-53.15,-70.92,75.2,38,100,23.04,overcast clouds,0.0,0.0
4,Necochea,AR,2020-02-22 20:16:14,-38.55,-58.74,75.99,65,0,3.0,clear sky,0.0,0.0
5,Castro,BR,2020-02-22 20:18:09,-24.79,-50.01,70.52,75,34,5.53,light rain,0.38,0.0
6,Komsomolskiy,UZ,2020-02-22 20:18:06,40.43,71.72,44.6,80,87,6.93,mist,0.0,0.0
7,Ancud,CL,2020-02-22 20:18:09,-41.87,-73.82,80.6,32,0,8.05,clear sky,0.0,0.0
8,Ushuaia,AR,2020-02-22 20:18:00,-54.8,-68.3,69.8,46,40,4.7,scattered clouds,0.0,0.0
9,Viking,CA,2020-02-22 20:18:10,53.1,-111.77,37.0,63,99,7.0,light snow,0.0,0.19
10,Totness,SR,2020-02-22 20:18:10,5.88,-56.32,79.72,81,13,11.99,few clouds,0.0,0.0
11,Hobart,AU,2020-02-22 20:16:32,-42.88,147.33,53.01,87,20,6.93,few clouds,0.0,0.0
12,Viedma,AR,2020-02-22 20:18:10,-40.81,-63.0,78.15,26,0,1.1,clear sky,0.0,0.0
13,Kintinku,TZ,2020-02-22 20:18:10,-5.88,35.23,77.0,69,20,1.54,few clouds,0.0,0.0
14,Bluff,NZ,2020-02-22 20:18:11,-46.6,168.33,55.99,79,68,5.99,light rain,0.19,0.0
15,Avarua,CK,2020-02-22 20:18:11,-21.21,-159.78,82.4,88,69,8.05,light rain,1.94,0.0
16,New Norfolk,AU,2020-02-22 20:18:11,-42.78,147.06,53.01,87,20,6.93,few clouds,0.0,0.0
17,Itarema,BR,2020-02-22 20:13:18,-2.92,-39.92,74.1,96,100,6.11,light rain,0.81,0.0
18,Emba,KZ,2020-02-22 20:18:11,48.83,58.14,13.69,94,11,5.84,few clouds,0.0,0.0
19,Barrow,US,2020-02-22 20:13:32,71.29,-156.79,-11.2,76,90,5.82,light snow,0.0,0.0
20,Albany,US,2020-02-22 20:18:03,42.6,-73.97,44.01,33,20,10.29,few clouds,0.0,0.0
21,Vaini,TO,2020-02-22 20:16:13,-21.2,-175.2,77.0,94,75,6.93,light intensity shower rain,0.0,0.0
22,Georgetown,MY,2020-02-22 20:18:12,5.41,100.34,80.6,69,20,4.7,few clouds,0.0,0.0
23,Taoudenni,ML,2020-02-22 20:17:41,22.68,-3.98,78.84,10,2,10.58,clear sky,0.0,0.0
24,Port Hedland,AU,2020-02-22 20:18:13,-20.32,118.57,78.8,88,46,5.82,scattered clouds,0.0,0.0
25,Fairbanks,US,2020-02-22 20:17:02,64.84,-147.72,12.2,84,90,4.7,overcast clouds,0.0,0.0
26,Cape Town,ZA,2020-02-22 20:18:13,-33.93,18.42,66.99,77,20,25.28,few clouds,0.0,0.0
27,Debica,PL,2020-02-22 20:18:13,50.05,21.41,48.0,48,100,20.8,overcast clouds,0.0,0.0
28,Ilulissat,GL,2020-02-22 20:17:02,69.22,-51.1,-0.4,49,40,2.24,scattered clouds,0.0,0.0
29,Rikitea,PF,2020-02-22 20:16:08,-23.12,-134.97,78.94,70,1,7.52,clear sky,0.0,0.0
30,Jamestown,US,2020-02-22 20:18:14,42.1,-79.24,41.0,44,1,17.22,clear sky,0.0,0.0
31,Busselton,AU,2020-02-22 20:16:23,-33.65,115.33,66.99,67,5,10.8,clear sky,0.0,0.0
32,Neftcala,AZ,2020-02-22 20:18:14,39.37,49.25,49.17,91,72,8.25,broken clouds,0.0,0.0
33,Lamu,KE,2020-02-22 20:18:14,-2.27,40.9,81.79,81,71,17.81,broken clouds,0.0,0.0
34,Itoman,JP,2020-02-22 20:18:15,26.12,127.67,64.4,63,40,13.87,scattered clouds,0.0,0.0
35,Kyra,RU,2020-02-22 20:18:15,49.58,111.98,3.81,85,17,3.89,few clouds,0.0,0.0
36,Vitim,RU,2020-02-22 20:18:15,59.45,112.56,14.13,96,100,1.95,light snow,0.0,0.31
37,Camana,PE,2020-02-22 20:18:15,-16.62,-72.71,71.46,73,58,10.76,broken clouds,0.0,0.0
38,Clyde River,CA,2020-02-22 20:14:12,70.47,-68.59,-23.8,74,1,6.93,clear sky,0.0,0.0
39,Arraial Do Cabo,BR,2020-02-22 20:18:16,-22.97,-42.03,78.8,74,40,5.82,scattered clouds,0.0,0.0
40,Pindushi,RU,2020-02-22 20:18:16,62.92,34.58,31.89,97,100,19.73,snow,0.0,1.69
41,Mount Isa,AU,2020-02-22 20:13:31,-20.73,139.5,80.6,69,40,5.82,scattered clouds,0.0,0.0
42,Miyako,JP,2020-02-22 20:18:16,39.64,141.95,37.92,66,21,14.23,few clouds,0.0,0.0
43,Smolyaninovo,RU,2020-02-22 20:18:17,43.3,132.47,23.0,49,44,8.95,scattered clouds,0.0,0.0
44,Bud,US,2020-02-22 20:18:17,39.45,-86.18,50.0,28,1,11.41,clear sky,0.0,0.0
45,Severo-Yeniseyskiy,RU,2020-02-22 20:16:01,60.37,93.04,8.76,96,66,3.31,broken clouds,0.0,0.0
46,Rio Gallegos,AR,2020-02-22 20:17:11,-51.62,-69.22,75.2,33,34,23.04,scattered clouds,0.0,0.0
47,Aitape,PG,2020-02-22 20:18:17,-3.14,142.35,82.0,78,3,11.92,light rain,0.13,0.0
48,Faanui,PF,2020-02-22 20:13:49,-16.48,-151.75,82.04,74,49,9.24,light rain,0.63,0.0
49,Olafsvik,IS,2020-02-22 20:18:18,64.89,-23.71,28.99,70,100,5.37,overcast clouds,0.0,0.0
50,Barcelos,PT,2020-02-22 20:14:08,41.54,-8.62,59.0,76,0,3.36,clear sky,0.0,0.0
51,Butaritari,KI,2020-02-22 20:18:18,3.07,172.79,83.89,75,94,6.55,overcast clouds,0.0,0.0
52,Zhuhai,CN,2020-02-22 20:18:19,22.28,113.57,64.99,88,0,17.22,clear sky,0.0,0.0
53,Derzhavinsk,KZ,2020-02-22 20:18:19,51.1,66.32,24.3,88,100,2.93,overcast clouds,0.0,0.0
54,Onokhoy,RU,2020-02-22 20:18:19,51.93,108.07,-0.4,84,100,2.24,mist,0.0,0.0
55,Nanortalik,GL,2020-02-22 20:18:19,60.14,-45.24,27.57,89,100,17.9,snow,0.0,2.13
56,Port Alfred,ZA,2020-02-22 20:18:20,-33.59,26.89,64.99,97,100,3.0,light rain,2.19,0.0
57,Bethel,US,2020-02-22 20:18:20,41.37,-73.41,50.0,20,1,10.29,clear sky,0.0,0.0
58,Safaga,EG,2020-02-22 20:18:20,26.73,33.94,60.8,69,0,3.36,clear sky,0.0,0.0
59,Yellowknife,CA,2020-02-22 20:14:24,62.46,-114.35,3.99,65,20,6.93,few clouds,0.0,0.0
60,Souillac,MU,2020-02-22 20:18:20,-20.52,57.52,77.0,88,40,2.24,scattered clouds,0.0,0.0
61,Codrington,AU,2020-02-22 20:18:07,-38.27,141.97,58.05,77,0,7.23,clear sky,0.0,0.0
62,Victoria,HK,2020-02-22 20:16:02,22.29,114.16,64.99,77,20,20.8,few clouds,0.0,0.0
63,Kuusamo,FI,2020-02-22 20:18:21,65.97,29.18,32.0,97,90,11.41,overcast clouds,0.0,0.0
64,Thompson,CA,2020-02-22 20:14:44,55.74,-97.86,24.8,53,20,4.7,few clouds,0.0,0.0
65,Saldanha,ZA,2020-02-22 20:17:24,-33.01,17.94,68.0,72,85,14.99,overcast clouds,0.0,0.0
66,Katsuura,JP,2020-02-22 20:18:22,35.13,140.3,48.2,36,20,14.99,few clouds,0.0,0.0
67,Polunochnoye,RU,2020-02-22 20:18:22,60.87,60.42,22.33,90,38,8.28,scattered clouds,0.0,0.0
68,Hithadhoo,MV,2020-02-22 20:18:22,-0.6,73.08,82.15,81,89,14.03,overcast clouds,0.0,0.0
69,Rosa Zarate,EC,2020-02-22 20:16:05,0.33,-79.47,79.36,90,98,5.97,moderate rain,7.88,0.0
70,Schwyz,CH,2020-02-22 20:18:23,47.03,8.66,50.0,70,83,4.7,broken clouds,0.0,0.0
71,Mahebourg,MU,2020-02-22 20:18:23,-20.41,57.7,77.0,88,40,2.24,scattered clouds,0.0,0.0
72,Innisfail,AU,2020-02-22 20:18:23,-17.53,146.03,75.85,94,96,4.09,light rain,1.44,0.0
73,Bredasdorp,ZA,2020-02-22 20:18:23,-34.53,20.04,66.2,68,93,11.41,overcast clouds,0.0,0.0
74,Limoeiro Do Ajuru,BR,2020-02-22 20:18:24,-1.9,-49.38,80.38,82,57,3.33,broken clouds,0.0,0.0
75,Aleksandrov Gay,RU,2020-02-22 20:18:24,50.15,48.57,28.4,90,41,7.11,scattered clouds,0.0,0.0
76,Gimli,CA,2020-02-22 20:13:26,50.63,-96.99,35.01,61,100,3.0,overcast clouds,0.0,0.0
77,Leningradskiy,RU,2020-02-22 20:13:51,69.38,178.42,-12.59,95,100,9.93,light snow,0.0,0.13
78,Tuktoyaktuk,CA,2020-02-22 20:16:11,69.45,-133.04,3.2,84,90,6.93,light snow,0.0,0.0
79,Kloulklubed,PW,2020-02-22 20:13:46,7.04,134.26,78.8,83,90,9.17,overcast clouds,0.0,0.0
80,Hofn,IS,2020-02-22 20:18:25,64.25,-15.21,34.3,67,100,9.62,overcast clouds,0.0,0.0
81,Pisco,PE,2020-02-22 20:18:25,-13.7,-76.22,77.0,30,20,10.29,few clouds,0.0,0.0
82,Khatanga,RU,2020-02-22 20:18:25,71.97,102.5,6.87,83,100,14.27,overcast clouds,0.0,0.0
83,Te Anau,NZ,2020-02-22 20:18:26,-45.42,167.72,51.8,74,60,2.51,broken clouds,0.0,0.0
84,San Patricio,MX,2020-02-22 20:18:26,19.22,-104.7,84.2,74,20,11.41,few clouds,0.0,0.0
85,Esperance,AU,2020-02-22 20:16:11,-33.87,121.9,66.2,77,90,6.93,overcast clouds,0.0,0.0
86,Nancha,CN,2020-02-22 20:18:26,47.13,129.27,0.41,94,0,4.76,clear sky,0.0,0.0
87,Kodiak,US,2020-02-22 20:16:31,57.79,-152.41,15.8,61,1,25.7,clear sky,0.0,0.0
88,Bambous Virieux,MU,2020-02-22 20:18:27,-20.34,57.76,77.0,88,40,2.24,scattered clouds,0.0,0.0
89,Bay Roberts,CA,2020-02-22 20:13:59,47.6,-53.26,27.0,67,75,20.8,broken clouds,0.0,0.0
90,Yerbogachen,RU,2020-02-22 20:13:39,61.28,108.01,10.27,96,85,4.85,overcast clouds,0.0,0.0
91,Novyy Svit,UA,2020-02-22 20:18:27,47.81,38.02,32.72,98,100,4.18,light snow,0.0,0.13
92,El Alto,PE,2020-02-22 20:18:27,-4.27,-81.21,62.6,100,40,12.75,scattered clouds,0.0,0.0
93,Delmas,ZA,2020-02-22 20:18:28,-26.15,28.68,64.99,93,100,6.93,light rain,1.5,0.0
94,Haverfordwest,GB,2020-02-22 20:18:28,51.8,-4.97,48.99,87,100,21.92,overcast clouds,0.0,0.0
95,Hermanus,ZA,2020-02-22 20:18:28,-34.42,19.23,66.99,97,89,3.0,overcast clouds,0.0,0.0
96,Cockburn Town,TC,2020-02-22 20:18:28,21.46,-71.14,80.6,69,40,9.17,scattered clouds,0.0,0.0
97,Longyearbyen,SJ,2020-02-22 20:18:29,78.22,15.64,-0.4,70,20,14.99,few clouds,0.0,0.0
98,Hilo,US,2020-02-22 20:18:29,19.73,-155.09,75.99,64,1,6.93,clear sky,0.0,0.0
99,Tasiilaq,GL,2020-02-22 20:18:29,65.61,-37.64,17.6,61,75,4.7,broken clouds,0.0,0.0
100,Auki,SB,2020-02-22 20:18:30,-8.77,160.7,82.92,77,6,4.14,clear sky,0.0,0.0
101,Mersing,MY,2020-02-22 20:18:30,2.43,103.84,80.6,88,0,12.75,light rain,0.38,0.0
102,Grand Gaube,MU,2020-02-22 20:18:30,-20.01,57.66,77.0,88,40,2.24,scattered clouds,0.0,0.0
103,Nelson Bay,AU,2020-02-22 20:18:30,-32.72,152.15,71.01,88,100,3.36,overcast clouds,0.0,0.0
104,Kieta,PG,2020-02-22 20:18:31,-6.22,155.63,81.21,75,36,4.76,scattered clouds,0.0,0.0
105,Carutapera,BR,2020-02-22 20:18:31,-1.2,-46.02,81.95,75,20,4.16,few clouds,0.0,0.0
106,Vikhorevka,RU,2020-02-22 20:18:31,56.12,101.16,10.4,92,82,4.47,broken clouds,0.0,0.0
107,Mawlaik,MM,2020-02-22 20:18:31,23.63,94.42,61.45,55,12,2.15,few clouds,0.0,0.0
108,Parnu-Jaagupi,EE,2020-02-22 20:18:31,58.61,24.51,42.01,71,100,21.99,light rain,2.44,0.0
109,Sao Felix Do Xingu,BR,2020-02-22 20:14:05,-6.64,-51.99,77.74,93,100,1.23,light rain,1.31,0.0
110,Luanda,AO,2020-02-22 20:18:32,-8.84,13.23,82.4,83,40,8.05,scattered clouds,0.0,0.0
111,Klyuchi,RU,2020-02-22 20:13:37,52.27,79.17,13.89,96,86,7.81,overcast clouds,0.0,0.0
112,Moose Factory,CA,2020-02-22 20:18:32,51.26,-80.61,41.0,41,75,14.99,broken clouds,0.0,0.0
113,Espinosa,BR,2020-02-22 20:18:32,-14.93,-42.82,76.6,77,100,2.57,overcast clouds,0.0,0.0
114,Odweyne,SO,2020-02-22 20:18:33,9.41,45.06,72.54,32,20,10.58,few clouds,0.0,0.0
115,Lenina,RU,2020-02-22 20:18:33,46.07,39.78,41.31,92,100,4.16,light rain,0.13,0.0
116,Euclides Da Cunha,BR,2020-02-22 20:18:33,-10.51,-39.02,84.81,54,96,5.35,overcast clouds,0.0,0.0
117,Tiksi,RU,2020-02-22 20:18:33,71.69,128.87,-11.67,90,90,7.4,overcast clouds,0.0,0.0
118,Esfarayen,IR,2020-02-22 20:18:33,37.08,57.51,42.8,81,40,4.7,scattered clouds,0.0,0.0
119,Guadalupe Victoria,MX,2020-02-22 20:18:34,32.29,-115.11,71.6,28,75,5.82,broken clouds,0.0,0.0
120,Bathsheba,BB,2020-02-22 20:18:34,13.22,-59.52,84.2,62,40,11.41,scattered clouds,0.0,0.0
121,Machiques,VE,2020-02-22 20:18:34,10.06,-72.55,94.75,34,100,9.98,overcast clouds,0.0,0.0
122,Le Moule,GP,2020-02-22 20:18:34,16.33,-61.35,82.4,61,90,6.93,overcast clouds,0.0,0.0
123,Buraydah,SA,2020-02-22 20:15:19,26.33,43.98,66.2,39,0,10.29,clear sky,0.0,0.0
124,Yarmouth,US,2020-02-22 20:18:34,41.71,-70.23,46.99,48,1,17.22,clear sky,0.0,0.0
125,Kazachinskoye,RU,2020-02-22 20:18:35,57.7,93.28,14.29,96,99,2.53,overcast clouds,0.0,0.0
126,Mataura,NZ,2020-02-22 20:18:35,-46.19,168.86,55.99,79,70,5.99,broken clouds,0.0,0.0
127,Flinders,AU,2020-02-22 20:18:35,-34.58,150.86,66.99,100,100,2.24,light rain,0.13,0.0
128,Mehamn,NO,2020-02-22 20:13:38,71.04,27.85,30.2,74,55,25.28,broken clouds,0.0,0.0
129,Saint-Denis,FR,2020-02-22 20:18:35,48.92,2.33,55.0,81,90,14.99,overcast clouds,0.0,0.0
130,Hasaki,JP,2020-02-22 20:18:36,35.73,140.83,48.2,36,40,4.7,scattered clouds,0.0,0.0
131,Selikhino,RU,2020-02-22 20:18:36,50.37,137.5,-4.56,98,69,4.59,broken clouds,0.0,0.0
132,General Roca,AR,2020-02-22 20:18:36,-39.03,-67.58,82.4,20,0,13.87,clear sky,0.0,0.0
133,Sena Madureira,BR,2020-02-22 20:18:36,-9.07,-68.66,73.0,99,100,0.58,moderate rain,3.38,0.0
134,Tautira,PF,2020-02-22 20:14:32,-17.73,-149.15,86.0,70,20,9.17,few clouds,0.0,0.0
135,Cherskiy,RU,2020-02-22 20:16:47,68.75,161.3,-20.52,97,96,4.97,overcast clouds,0.0,0.0
136,Christchurch,NZ,2020-02-22 20:18:37,-43.53,172.63,57.99,100,0,2.24,clear sky,0.0,0.0
137,Srednekolymsk,RU,2020-02-22 20:18:37,67.45,153.68,-27.51,100,95,1.21,overcast clouds,0.0,0.0
138,Saint-Louis,SN,2020-02-22 20:18:19,16.33,-15.0,79.7,25,22,16.71,few clouds,0.0,0.0
139,Ponta Do Sol,PT,2020-02-22 20:18:38,32.67,-17.1,69.01,77,20,19.46,few clouds,0.0,0.0
140,The Valley,AI,2020-02-22 20:18:38,18.22,-63.06,82.99,69,40,5.82,scattered clouds,0.0,0.0
141,Praia Da Vitoria,PT,2020-02-22 20:13:52,38.73,-27.07,60.8,72,40,5.37,scattered clouds,0.0,0.0
142,Waipawa,NZ,2020-02-22 20:18:38,-41.41,175.52,55.99,87,100,24.16,moderate rain,0.0,0.0
143,Carnarvon,AU,2020-02-22 20:16:39,-24.87,113.63,75.2,83,40,6.93,scattered clouds,0.0,0.0
144,Galle,LK,2020-02-22 20:16:16,6.04,80.22,80.82,76,100,14.05,overcast clouds,0.0,0.0
145,Severo-Kurilsk,RU,2020-02-22 20:18:35,50.68,156.12,7.7,89,31,0.74,scattered clouds,0.0,0.0
146,Camabatela,AO,2020-02-22 20:18:39,-8.19,15.38,66.27,97,100,3.58,light rain,2.13,0.0
147,Portland,US,2020-02-22 20:15:12,45.52,-122.68,53.01,61,90,4.7,light rain,0.0,0.0
148,Chokurdakh,RU,2020-02-22 20:18:39,70.63,147.92,-13.88,97,100,1.48,overcast clouds,0.0,0.0
149,Qaqortoq,GL,2020-02-22 20:14:00,60.72,-46.03,21.2,34,75,12.75,broken clouds,0.0,0.0
150,Kuruman,ZA,2020-02-22 20:18:40,-27.45,23.43,66.99,94,44,0.36,light rain,0.19,0.0
151,Kasongo,CD,2020-02-22 20:16:03,-4.45,26.67,74.34,87,100,1.45,overcast clouds,0.0,0.0
152,Pinawa,CA,2020-02-22 20:18:40,50.15,-95.88,32.18,95,66,4.16,broken clouds,0.0,0.0
153,Saskylakh,RU,2020-02-22 20:18:41,71.92,114.08,-13.74,93,39,5.1,scattered clouds,0.0,0.0
154,Cabo San Lucas,MX,2020-02-22 20:18:41,22.89,-109.91,87.01,30,20,9.17,few clouds,0.0,0.0
155,Nueva Helvecia,UY,2020-02-22 20:18:41,-34.3,-57.23,69.01,59,0,6.93,clear sky,0.0,0.0
156,Cedar City,US,2020-02-22 20:15:51,37.68,-113.06,46.4,36,40,5.82,scattered clouds,0.0,0.0
157,Dwarka,IN,2020-02-22 20:18:42,22.24,68.97,75.45,55,0,13.27,clear sky,0.0,0.0
158,Soe,ID,2020-02-22 20:18:42,-9.86,124.28,75.15,82,47,2.28,scattered clouds,0.0,0.0
159,Mar Del Plata,AR,2020-02-22 20:15:05,-38.0,-57.56,64.4,63,0,13.87,clear sky,0.0,0.0
160,Nantucket,US,2020-02-22 20:16:11,41.28,-70.1,43.0,56,1,19.46,clear sky,0.0,0.0
161,Keti Bandar,PK,2020-02-22 20:18:43,24.14,67.45,71.82,37,0,10.69,clear sky,0.0,0.0
162,Buala,SB,2020-02-22 20:18:43,-8.14,159.59,81.03,80,2,3.71,light rain,2.25,0.0
163,Antalaha,MG,2020-02-22 20:18:43,-14.9,50.28,81.16,80,94,7.76,light rain,1.06,0.0
164,Olinda,BR,2020-02-22 20:18:43,-8.01,-34.86,86.0,70,20,8.05,few clouds,0.0,0.0
165,Sept-Iles,CA,2020-02-22 20:15:44,50.2,-66.38,35.01,69,75,11.41,broken clouds,0.0,0.0
166,Ejura,GH,2020-02-22 20:18:44,7.39,-1.36,85.05,26,44,1.83,scattered clouds,0.0,0.0
167,Majene,ID,2020-02-22 20:18:44,-3.54,118.97,75.69,88,88,3.49,overcast clouds,0.0,0.0
168,Narrabri,AU,2020-02-22 20:18:44,-30.32,149.78,72.0,72,90,5.17,overcast clouds,0.0,0.0
169,Chuy,UY,2020-02-22 20:18:44,-33.7,-53.46,67.87,62,31,11.77,scattered clouds,0.0,0.0
170,Talcahuano,CL,2020-02-22 20:18:44,-36.72,-73.12,68.0,60,20,9.17,few clouds,0.0,0.0
171,Ribeira Grande,PT,2020-02-22 20:16:41,38.52,-28.7,59.0,72,75,5.82,broken clouds,0.0,0.0
172,Gudari,IN,2020-02-22 20:18:45,19.35,83.78,61.75,61,0,1.25,clear sky,0.0,0.0
173,Puerto Ayora,EC,2020-02-22 20:18:45,-0.74,-90.35,82.4,83,75,6.93,light rain,0.0,0.0
174,Guarapari,BR,2020-02-22 20:18:45,-20.67,-40.5,80.6,78,75,12.75,broken clouds,0.0,0.0
175,Fasa,IR,2020-02-22 20:18:45,28.94,53.65,50.0,61,0,6.93,clear sky,0.0,0.0
176,Upernavik,GL,2020-02-22 20:18:46,72.79,-56.15,-15.9,94,78,4.88,broken clouds,0.0,0.0
177,Vila Do Maio,CV,2020-02-22 20:18:46,15.13,-23.22,71.6,68,75,24.16,broken clouds,0.0,0.0
178,Husavik,IS,2020-02-22 20:18:46,66.04,-17.34,21.94,87,100,10.38,overcast clouds,0.0,0.0
179,Farafangana,MG,2020-02-22 20:18:46,-22.82,47.83,79.48,80,95,14.79,light rain,2.56,0.0
180,Dikson,RU,2020-02-22 20:18:21,73.51,80.55,16.52,93,100,25.37,light snow,0.0,0.81
181,Rudnyy,KZ,2020-02-22 20:18:47,52.96,63.12,26.6,92,90,4.47,light snow,0.0,0.0
182,Norman Wells,CA,2020-02-22 20:18:47,65.28,-126.83,6.8,77,75,5.82,light shower snow,0.0,0.0
183,Provideniya,RU,2020-02-22 20:18:47,64.38,-173.3,-14.6,87,18,2.73,few clouds,0.0,0.0
184,Coihaique,CL,2020-02-22 20:14:25,-45.58,-72.07,82.4,26,0,6.93,clear sky,0.0,0.0
185,Basco,PH,2020-02-22 20:18:48,20.45,121.97,72.79,75,40,26.22,scattered clouds,0.0,0.0
186,Okha,RU,2020-02-22 20:18:48,53.57,142.95,3.47,97,100,5.55,overcast clouds,0.0,0.0
187,Goulburn,AU,2020-02-22 20:18:48,-34.75,149.72,55.0,95,82,3.89,broken clouds,0.0,0.0
188,Abu Samrah,SY,2020-02-22 20:18:48,35.3,37.18,48.97,84,100,5.3,overcast clouds,0.0,0.0
189,Kaitangata,NZ,2020-02-22 20:18:49,-46.28,169.85,53.01,65,66,8.01,broken clouds,0.0,0.0
190,Katangli,RU,2020-02-22 20:18:49,51.71,143.23,10.94,97,97,3.6,overcast clouds,0.0,0.0
191,Kavieng,PG,2020-02-22 20:18:49,-2.57,150.8,83.43,73,13,5.53,few clouds,0.0,0.0
192,Atuona,PF,2020-02-22 20:15:05,-9.8,-139.03,81.86,76,0,13.73,light rain,0.31,0.0
193,Santa Cruz Cabralia,BR,2020-02-22 20:18:49,-16.28,-39.02,84.2,70,40,20.8,scattered clouds,0.0,0.0
194,Otukpo,NG,2020-02-22 20:18:50,7.19,8.13,83.17,17,0,3.42,clear sky,0.0,0.0
195,Beitbridge,ZW,2020-02-22 20:18:50,-22.22,30.0,83.75,55,0,12.44,clear sky,0.0,0.0
196,Airai,TL,2020-02-22 20:18:50,-8.93,125.41,66.29,82,8,4.83,clear sky,0.0,0.0
197,Tulsipur,NP,2020-02-22 20:18:50,28.13,82.3,55.56,65,0,6.17,clear sky,0.0,0.0
198,Sisimiut,GL,2020-02-22 20:18:50,66.94,-53.67,-3.98,81,100,5.12,overcast clouds,0.0,0.0
199,Chifeng,CN,2020-02-22 20:18:51,42.27,118.96,17.08,65,94,7.34,overcast clouds,0.0,0.0
200,Owando,CG,2020-02-22 20:18:51,-0.48,15.9,76.96,82,40,3.74,scattered clouds,0.0,0.0
201,Fenoarivo,MG,2020-02-22 20:18:51,-18.93,47.44,66.2,93,75,3.36,light rain,0.0,0.0
202,Talaja,IN,2020-02-22 20:18:51,21.35,72.05,67.91,31,0,9.6,clear sky,0.0,0.0
203,Fortuna,US,2020-02-22 20:18:51,40.6,-124.16,55.99,87,90,9.17,overcast clouds,0.0,0.0
204,Biryusinsk,RU,2020-02-22 20:18:52,55.96,97.82,10.99,96,100,4.36,overcast clouds,0.0,0.0
205,Kaili,ID,2020-02-22 20:18:52,-3.46,120.21,62.62,90,98,0.47,overcast clouds,0.0,0.0
206,Padang,ID,2020-02-22 20:18:52,-0.95,100.35,70.09,83,0,6.89,clear sky,0.0,0.0
207,Nikolskoye,RU,2020-02-22 20:18:52,59.7,30.79,35.01,93,90,13.42,shower sleet,0.0,0.0
208,Karratha,AU,2020-02-22 20:18:53,-20.74,116.85,81.27,74,0,13.18,clear sky,0.0,0.0
209,Bogorodskoye,RU,2020-02-22 20:18:53,56.55,37.88,34.09,81,100,22.01,overcast clouds,0.0,0.0
210,Ajaccio,FR,2020-02-22 20:18:53,42.0,8.92,51.8,87,0,5.82,clear sky,0.0,0.0
211,Qaanaaq,GL,2020-02-22 20:18:53,77.48,-69.36,-14.08,64,99,4.52,overcast clouds,0.0,0.0
212,San Luis,AR,2020-02-22 20:18:53,-33.3,-66.34,78.04,30,29,11.12,scattered clouds,0.0,0.0
213,Tigil,RU,2020-02-22 20:18:54,57.8,158.67,-2.87,94,55,7.02,broken clouds,0.0,0.0
214,Del Rio,US,2020-02-22 20:18:37,29.36,-100.9,66.2,34,1,13.87,clear sky,0.0,0.0
215,Gallup,US,2020-02-22 20:17:01,35.53,-108.74,42.8,87,90,6.93,moderate rain,0.0,0.0
216,Port Hardy,CA,2020-02-22 20:15:34,50.7,-127.42,42.8,87,40,10.29,scattered clouds,0.0,0.0
217,Parrita,CR,2020-02-22 20:18:54,9.52,-84.32,82.4,44,20,20.8,few clouds,0.0,0.0
218,Awbari,LY,2020-02-22 20:18:55,26.59,12.78,53.83,42,0,3.18,clear sky,0.0,0.0
219,Tsogni,GA,2020-02-22 20:18:55,-2.79,10.1,83.01,80,100,9.66,light rain,0.38,0.0
220,Port Elizabeth,ZA,2020-02-22 20:18:53,-33.92,25.57,66.2,93,75,10.29,light intensity drizzle,0.0,0.0
221,Imbituba,BR,2020-02-22 20:18:55,-28.24,-48.67,77.0,50,0,18.34,clear sky,0.0,0.0
222,Mantua,IT,2020-02-22 20:18:55,45.17,10.78,50.0,61,67,3.36,broken clouds,0.0,0.0
223,Haines Junction,CA,2020-02-22 20:18:56,60.75,-137.51,12.29,93,99,6.06,light snow,0.0,0.31
224,Vero Beach,US,2020-02-22 20:17:09,27.64,-80.4,72.0,53,20,12.75,few clouds,0.0,0.0
225,Alzamay,RU,2020-02-22 20:18:56,55.56,98.66,13.68,96,100,3.0,light snow,0.0,0.13
226,Cambridge,CA,2020-02-22 20:14:04,43.36,-80.31,44.01,64,1,19.46,clear sky,0.0,0.0
227,Kruisfontein,ZA,2020-02-22 20:19:32,-34.0,24.73,63.36,84,100,16.15,light rain,1.69,0.0
228,Lazaro Cardenas,MX,2020-02-22 20:19:32,17.96,-102.2,85.08,54,0,9.15,clear sky,0.0,0.0
229,Coquimbo,CL,2020-02-22 20:19:32,-29.95,-71.34,68.0,68,0,13.87,clear sky,0.0,0.0
230,Marawi,PH,2020-02-22 20:19:32,8.0,124.29,72.0,87,26,5.01,scattered clouds,0.0,0.0
231,Avera,US,2020-02-22 20:19:00,33.19,-82.53,55.99,30,1,1.21,clear sky,0.0,0.0
232,Victor Harbor,AU,2020-02-22 20:19:33,-35.57,138.62,64.99,71,0,5.82,clear sky,0.0,0.0
233,Half Moon Bay,US,2020-02-22 20:19:16,37.46,-122.43,69.8,62,40,16.11,scattered clouds,0.0,0.0
234,Hambantota,LK,2020-02-22 20:18:37,6.12,81.12,79.25,83,100,22.68,overcast clouds,0.0,0.0
235,Kununurra,AU,2020-02-22 20:19:34,-15.77,128.73,75.2,88,58,1.12,broken clouds,0.0,0.0
236,Talas,TR,2020-02-22 20:19:34,38.69,35.55,39.2,86,75,2.24,broken clouds,0.0,0.0
237,Okhotsk,RU,2020-02-22 20:19:34,59.38,143.3,-12.35,100,87,3.8,overcast clouds,0.0,0.0
238,Los Llanos De Aridane,ES,2020-02-22 20:19:35,28.66,-17.92,68.0,52,0,12.75,clear sky,0.0,0.0
239,Kaoma,ZM,2020-02-22 20:19:35,-14.78,24.8,68.31,89,83,2.35,broken clouds,0.0,0.0
240,Yaroslavskiy,RU,2020-02-22 20:19:35,44.17,132.21,15.22,75,0,10.87,clear sky,0.0,0.0
241,Boysun,UZ,2020-02-22 20:19:35,38.21,67.2,48.99,60,30,4.47,scattered clouds,0.0,0.0
242,Sao Filipe,CV,2020-02-22 20:18:25,14.9,-24.5,67.42,82,84,20.85,broken clouds,0.0,0.0
243,Nuqui,CO,2020-02-22 20:19:36,5.71,-77.27,87.8,66,40,9.17,haze,0.0,0.0
244,Shelburne,CA,2020-02-22 20:17:27,44.08,-80.2,41.0,55,1,11.41,clear sky,0.0,0.0
245,Catamarca,AR,2020-02-22 20:15:35,-28.47,-65.79,60.01,76,98,1.01,overcast clouds,0.0,0.0
246,Sterling,US,2020-02-22 20:19:36,39.01,-77.43,55.99,18,1,9.17,clear sky,0.0,0.0
247,Paita,PE,2020-02-22 20:19:37,-5.09,-81.11,62.6,100,40,12.75,scattered clouds,0.0,0.0
248,Talnakh,RU,2020-02-22 20:17:03,69.49,88.4,10.4,85,100,22.37,light snow,0.0,0.0
249,East London,ZA,2020-02-22 20:18:17,-33.02,27.91,72.21,81,100,22.64,light rain,1.5,0.0
250,Okakarara,NA,2020-02-22 20:19:37,-20.58,17.43,71.37,72,95,4.54,light rain,0.75,0.0
251,Saint-Philippe,RE,2020-02-22 20:18:38,-21.36,55.77,75.2,73,100,6.93,light rain,0.31,0.0
252,Cidreira,BR,2020-02-22 20:19:38,-30.18,-50.21,70.93,67,15,17.34,light rain,0.25,0.0
253,Chitradurga,IN,2020-02-22 20:19:38,14.23,76.4,68.05,76,0,6.02,clear sky,0.0,0.0
254,Yasugi,JP,2020-02-22 20:19:38,35.43,133.25,44.6,52,75,13.87,broken clouds,0.0,0.0
255,Middelkerke,BE,2020-02-22 20:19:38,51.16,2.84,51.01,87,75,21.92,broken clouds,0.0,0.0
256,Kalat,PK,2020-02-22 20:19:38,29.02,66.59,46.56,44,0,4.52,clear sky,0.0,0.0
257,Kavaratti,IN,2020-02-22 20:19:39,10.57,72.64,81.79,76,67,8.39,broken clouds,0.0,0.0
258,Tiarei,PF,2020-02-22 20:19:28,-17.53,-149.33,86.0,70,20,12.75,few clouds,0.0,0.0
259,Pirgos,GR,2020-02-22 20:19:39,35.12,25.72,53.6,58,40,20.8,scattered clouds,0.0,0.0
260,Bichura,RU,2020-02-22 20:19:40,50.59,107.6,9.54,87,100,1.1,overcast clouds,0.0,0.0
261,Belyy Yar,RU,2020-02-22 20:19:40,53.6,91.39,19.4,85,100,6.71,overcast clouds,0.0,0.0
262,Podyuga,RU,2020-02-22 20:19:40,61.09,40.86,33.3,85,100,20.18,overcast clouds,0.0,0.0
263,Pacific Grove,US,2020-02-22 20:19:07,36.62,-121.92,64.99,72,75,10.29,broken clouds,0.0,0.0
264,Saint Stephen,GB,2020-02-22 20:19:40,50.33,-4.9,50.0,93,40,14.99,scattered clouds,0.0,0.0
265,Eydhafushi,MV,2020-02-22 20:19:40,5.1,73.07,81.82,81,97,13.02,light rain,1.69,0.0
266,North Bend,US,2020-02-22 20:19:02,43.41,-124.22,54.0,58,1,4.54,clear sky,0.0,0.0
267,Ati,TD,2020-02-22 20:19:41,13.22,18.34,77.52,9,0,12.86,clear sky,0.0,0.0
268,Boyolangu,ID,2020-02-22 20:19:41,-8.12,111.89,73.51,91,40,0.56,light rain,0.69,0.0
269,Aloleng,PH,2020-02-22 20:19:41,16.13,119.78,66.4,70,33,4.68,scattered clouds,0.0,0.0
270,Constitucion,CL,2020-02-22 20:16:05,-35.33,-72.42,62.53,72,0,6.11,clear sky,0.0,0.0
271,Rawson,AR,2020-02-22 20:19:42,-43.3,-65.1,72.46,42,0,24.87,clear sky,0.0,0.0
272,Vila Franca Do Campo,PT,2020-02-22 20:17:08,37.72,-25.43,57.2,76,20,4.7,few clouds,0.0,0.0
273,Homer,US,2020-02-22 20:15:13,59.64,-151.55,21.2,85,90,18.34,heavy snow,0.0,0.0
274,Acapulco,MX,2020-02-22 20:19:42,16.86,-99.89,86.0,70,5,8.05,clear sky,0.0,0.0
275,Tura,IN,2020-02-22 20:19:43,25.52,90.22,67.06,47,29,4.07,scattered clouds,0.0,0.0
276,Fare,PF,2020-02-22 20:19:43,-16.7,-151.02,82.36,73,22,9.53,light rain,0.56,0.0
277,Ilanskiy,RU,2020-02-22 20:19:43,56.24,96.06,12.34,96,96,2.86,overcast clouds,0.0,0.0
278,Vila Velha,BR,2020-02-22 20:15:35,-20.33,-40.29,80.6,78,75,12.75,broken clouds,0.0,0.0
279,La Ronge,CA,2020-02-22 20:19:44,55.1,-105.28,37.4,51,90,10.29,overcast clouds,0.0,0.0
280,Vaitape,PF,2020-02-22 20:19:44,-16.52,-151.75,82.04,74,49,9.24,light rain,0.63,0.0
281,Lata,PT,2020-02-22 20:17:46,40.16,-8.33,57.0,82,0,3.36,clear sky,0.0,0.0
282,Luderitz,NA,2020-02-22 20:19:44,-26.65,15.16,66.2,77,0,18.34,clear sky,0.0,0.0
283,Kudahuvadhoo,MV,2020-02-22 20:19:44,2.67,72.89,82.72,75,100,9.08,overcast clouds,0.0,0.0
284,Port Blair,IN,2020-02-22 20:19:45,11.67,92.75,81.28,74,51,12.08,broken clouds,0.0,0.0
285,Luwuk,ID,2020-02-22 20:19:45,-0.95,122.79,81.88,77,37,12.53,scattered clouds,0.0,0.0
286,Ciego De Avila,CU,2020-02-22 20:19:45,21.84,-78.76,76.26,62,28,17.6,light rain,0.31,0.0
287,Waingapu,ID,2020-02-22 20:19:45,-9.66,120.26,82.98,78,100,20.67,light rain,0.5,0.0
288,Puerto Madryn,AR,2020-02-22 20:19:45,-42.77,-65.04,82.9,15,0,27.98,clear sky,0.0,0.0
289,Hanstholm,DK,2020-02-22 20:19:46,57.12,8.62,42.01,88,97,5.99,light rain,0.5,0.0
290,Mount Gambier,AU,2020-02-22 20:16:53,-37.83,140.77,48.2,93,3,3.33,clear sky,0.0,0.0
291,Kudat,MY,2020-02-22 20:19:46,6.88,116.85,80.6,83,75,8.05,broken clouds,0.0,0.0
292,Ruski Krstur,RS,2020-02-22 20:19:46,45.56,19.42,39.0,74,83,10.29,broken clouds,0.0,0.0
293,Chara,RU,2020-02-22 20:19:46,56.91,118.26,0.99,85,100,0.78,overcast clouds,0.0,0.0
294,Talanga,HN,2020-02-22 20:19:47,14.4,-87.08,86.0,39,40,11.41,scattered clouds,0.0,0.0
295,Maridi,SS,2020-02-22 20:19:47,4.92,29.47,81.45,33,92,4.92,overcast clouds,0.0,0.0
296,Tuatapere,NZ,2020-02-22 20:16:40,-46.13,167.68,55.99,79,32,5.99,scattered clouds,0.0,0.0
297,Geraldton,AU,2020-02-22 20:16:25,-28.77,114.6,69.8,94,0,10.29,clear sky,0.0,0.0
298,Rosetta,EG,2020-02-22 20:19:16,31.4,30.42,59.0,58,40,5.82,scattered clouds,0.0,0.0
299,Akdepe,TM,2020-02-22 20:18:47,42.06,59.38,42.8,75,75,2.24,broken clouds,0.0,0.0
300,Urumqi,CN,2020-02-22 20:19:48,43.8,87.6,21.2,85,35,4.47,scattered clouds,0.0,0.0
301,Hovd,MN,2020-02-22 20:19:48,48.01,91.64,17.78,64,100,2.91,overcast clouds,0.0,0.0
302,Camargo,MX,2020-02-22 20:17:44,27.67,-105.17,75.65,27,100,6.13,overcast clouds,0.0,0.0
303,Akyab,MM,2020-02-22 20:19:48,20.15,92.9,72.45,49,0,7.96,clear sky,0.0,0.0
304,Shingu,JP,2020-02-22 20:19:49,33.73,135.98,49.55,62,0,20.4,clear sky,0.0,0.0
305,Banos,EC,2020-02-22 20:19:49,-1.4,-78.42,73.4,59,90,12.75,shower rain,0.0,0.0
306,Srivardhan,IN,2020-02-22 20:19:49,18.03,73.02,75.9,49,0,4.5,clear sky,0.0,0.0
307,Vestmanna,FO,2020-02-22 20:19:49,62.16,-7.17,35.6,69,45,8.05,scattered clouds,0.0,0.0
308,Osoyoos,CA,2020-02-22 20:19:50,49.03,-119.45,44.6,60,75,11.41,shower rain,0.0,0.0
309,Laguna,US,2020-02-22 20:19:39,38.42,-121.42,72.0,34,1,3.36,clear sky,0.0,0.0
310,Jiuquan,CN,2020-02-22 20:19:50,39.74,98.52,31.78,19,0,4.97,clear sky,0.0,0.0
311,Port Macquarie,AU,2020-02-22 20:19:51,-31.43,152.92,66.2,100,75,4.7,broken clouds,0.0,0.0
312,Yar-Sale,RU,2020-02-22 20:19:51,66.83,70.83,20.55,90,93,18.79,overcast clouds,0.0,0.0
313,Springbok,ZA,2020-02-22 20:19:51,-29.66,17.89,61.56,62,0,11.54,clear sky,0.0,0.0
314,Evensk,RU,2020-02-22 20:19:51,61.95,159.23,-13.77,77,95,4.23,overcast clouds,0.0,0.0
315,Ayolas,PY,2020-02-22 20:19:51,-27.4,-56.9,76.32,35,0,10.31,clear sky,0.0,0.0
316,Marrakesh,MA,2020-02-22 20:19:52,31.63,-8.01,69.8,22,20,5.82,few clouds,0.0,0.0
317,Aragarcas,BR,2020-02-22 20:19:52,-15.9,-52.25,84.2,70,40,2.24,scattered clouds,0.0,0.0
318,Hami,CN,2020-02-22 20:15:51,42.8,93.45,29.79,53,9,4.85,clear sky,0.0,0.0
319,Havre-Saint-Pierre,CA,2020-02-22 20:19:53,50.23,-63.6,28.4,74,75,18.34,broken clouds,0.0,0.0
320,Sibolga,ID,2020-02-22 20:19:53,1.74,98.78,70.72,89,0,3.42,clear sky,0.0,0.0
321,Yokadouma,CM,2020-02-22 20:19:53,3.52,15.05,73.22,55,1,1.36,clear sky,0.0,0.0
322,Hamilton,US,2020-02-22 20:19:22,39.18,-84.53,50.0,23,1,12.75,clear sky,0.0,0.0
323,Najran,SA,2020-02-22 20:19:53,17.49,44.13,75.2,29,12,1.97,few clouds,0.0,0.0
324,Sur,OM,2020-02-22 20:19:54,22.57,59.53,68.61,82,96,1.74,overcast clouds,0.0,0.0
325,Zhangye,CN,2020-02-22 20:19:54,38.93,100.45,36.93,25,0,7.76,clear sky,0.0,0.0
326,Zapolyarnyy,RU,2020-02-22 20:19:54,69.42,30.81,33.8,74,75,25.28,broken clouds,0.0,0.0
327,Eirunepe,BR,2020-02-22 20:19:54,-6.66,-69.87,80.06,92,100,4.79,moderate rain,6.25,0.0
328,Preetz,DE,2020-02-22 20:19:54,54.23,10.28,46.99,70,75,26.4,broken clouds,0.0,0.0
329,Nemuro,JP,2020-02-22 20:19:55,43.32,145.57,32.99,77,1,24.58,clear sky,0.0,0.0
330,Osmena,PH,2020-02-22 20:19:55,10.52,119.93,79.07,78,18,25.23,light rain,0.25,0.0
331,Kurilsk,RU,2020-02-22 20:19:55,45.23,147.88,33.1,99,100,12.86,moderate rain,4.63,0.0
332,Halifax,CA,2020-02-22 20:19:35,44.65,-63.57,39.99,55,75,13.87,broken clouds,0.0,0.0
333,Lebu,CL,2020-02-22 20:16:11,-37.62,-73.65,66.42,62,15,5.06,few clouds,0.0,0.0
334,Klaksvik,FO,2020-02-22 20:19:29,62.23,-6.59,35.6,69,96,8.05,overcast clouds,0.0,0.0
335,Tromso,NO,2020-02-22 20:19:56,69.65,18.96,37.4,80,75,40.26,shower rain,0.0,0.0
336,Pemangkat,ID,2020-02-22 20:19:56,1.17,108.97,75.65,92,100,9.8,overcast clouds,0.0,0.0
337,Kachug,RU,2020-02-22 20:19:56,53.96,105.88,9.18,93,97,4.41,overcast clouds,0.0,0.0
338,Ous,RU,2020-02-22 20:19:56,60.91,61.52,20.16,92,0,7.83,clear sky,0.0,0.0
339,Bitkine,TD,2020-02-22 20:17:06,11.98,18.21,77.83,10,0,9.26,clear sky,0.0,0.0
340,Riachao Das Neves,BR,2020-02-22 20:19:57,-11.75,-44.91,76.53,89,85,2.57,light rain,1.88,0.0
341,Banda Aceh,ID,2020-02-22 20:17:50,5.56,95.32,72.75,91,0,4.41,light rain,0.19,0.0
342,Nkhotakota,MW,2020-02-22 20:19:57,-12.93,34.3,81.45,71,57,3.67,broken clouds,0.0,0.0
343,Dolzhanskaya,RU,2020-02-22 20:19:57,46.63,37.8,37.62,93,97,6.33,overcast clouds,0.0,0.0
344,Stromness,GB,2020-02-22 20:19:58,58.97,-3.3,39.2,86,100,36.91,light rain,0.0,0.0
345,Selma,US,2020-02-22 20:19:58,36.57,-119.61,66.0,82,75,3.85,broken clouds,0.0,0.0
346,Susanville,US,2020-02-22 20:19:58,40.42,-120.65,55.99,22,1,4.7,clear sky,0.0,0.0
347,Hobyo,SO,2020-02-22 20:19:58,5.35,48.53,76.69,77,75,14.9,broken clouds,0.0,0.0
348,Beringovskiy,RU,2020-02-22 20:19:58,63.05,179.32,-9.99,92,18,5.1,few clouds,0.0,0.0
349,San Policarpo,PH,2020-02-22 20:19:31,12.18,125.51,77.22,84,33,12.41,light rain,0.56,0.0
350,Kijang,KR,2020-02-22 20:17:07,35.24,129.21,35.6,51,0,5.82,clear sky,0.0,0.0
351,Saint George,US,2020-02-22 20:18:37,37.1,-113.58,62.6,33,90,11.41,overcast clouds,0.0,0.0
352,Kuala Terengganu,MY,2020-02-22 20:19:59,5.33,103.14,80.6,83,40,8.05,light rain,0.0,0.0
353,Bogo,PH,2020-02-22 20:19:59,11.05,124.01,71.01,92,2,10.25,clear sky,0.0,0.0
354,Banjar,ID,2020-02-22 20:20:00,-8.19,114.97,82.35,68,48,2.98,scattered clouds,0.0,0.0
355,Ust-Tsilma,RU,2020-02-22 20:20:00,65.44,52.15,32.95,83,99,13.4,overcast clouds,0.0,0.0
356,Bandarbeyla,SO,2020-02-22 20:20:00,9.49,50.81,76.86,78,25,17.81,scattered clouds,0.0,0.0
357,Eureka,US,2020-02-22 20:15:02,40.8,-124.16,52.0,81,90,5.08,overcast clouds,0.0,0.0
358,Bjerkvik,NO,2020-02-22 20:20:01,68.56,17.52,37.4,96,90,21.92,light rain,0.0,0.0
359,Vao,NC,2020-02-22 20:20:01,-22.67,167.48,79.23,73,0,10.69,clear sky,0.0,0.0
360,Tezu,IN,2020-02-22 20:20:01,27.92,96.17,63.0,42,100,2.01,overcast clouds,0.0,0.0
361,Alofi,NU,2020-02-22 20:20:01,-19.06,-169.92,82.4,83,75,8.05,broken clouds,0.0,0.0
362,Kutum,SD,2020-02-22 20:20:01,14.2,24.67,58.91,17,23,5.32,few clouds,0.0,0.0
363,Lompoc,US,2020-02-22 20:15:43,34.64,-120.46,64.99,59,20,10.29,few clouds,0.0,0.0
364,Linjiang,CN,2020-02-22 20:20:02,41.81,126.91,3.94,99,87,4.41,overcast clouds,0.0,0.0
365,Pau Dos Ferros,BR,2020-02-22 20:20:02,-6.11,-38.21,78.94,82,100,7.18,light rain,0.63,0.0
366,Asfi,MA,2020-02-22 20:20:02,32.3,-9.24,58.82,63,0,9.13,clear sky,0.0,0.0
367,Vanderhoof,CA,2020-02-22 20:20:02,54.02,-124.02,35.06,57,0,7.58,clear sky,0.0,0.0
368,Vostok,RU,2020-02-22 20:20:03,46.49,135.88,8.71,96,100,5.01,light snow,0.0,0.69
369,Ponta Delgada,PT,2020-02-22 20:18:10,37.73,-25.67,57.2,76,20,4.7,few clouds,0.0,0.0
370,Cayenne,GF,2020-02-22 20:18:03,4.93,-52.33,82.4,78,75,10.29,broken clouds,0.0,0.0
371,Saint-Georges,GD,2020-02-22 20:19:13,12.06,-61.75,84.2,66,75,11.41,broken clouds,0.0,0.0
372,Chizhou,CN,2020-02-22 20:20:04,30.66,117.48,47.43,72,74,1.81,broken clouds,0.0,0.0
373,Waddan,LY,2020-02-22 20:20:04,29.16,16.14,55.47,46,0,9.44,clear sky,0.0,0.0
374,Sorkjosen,NO,2020-02-22 20:20:04,69.8,20.93,35.67,70,90,15.32,light snow,0.0,0.31
375,Batticaloa,LK,2020-02-22 20:20:05,7.71,81.69,73.63,94,69,2.37,light rain,0.19,0.0
376,Cabedelo,BR,2020-02-22 20:20:05,-6.98,-34.83,84.2,79,20,10.29,few clouds,0.0,0.0
377,Mackay,AU,2020-02-22 20:20:05,-21.15,149.2,78.8,88,90,14.99,overcast clouds,0.0,0.0
378,Valley City,US,2020-02-22 20:20:05,46.92,-98.0,39.2,74,1,11.41,clear sky,0.0,0.0
379,Fort-Shevchenko,KZ,2020-02-22 20:20:05,44.51,50.26,38.53,71,100,10.38,overcast clouds,0.0,0.0
380,Las Matas De Farfan,DO,2020-02-22 20:20:06,18.87,-71.52,79.63,50,36,9.53,scattered clouds,0.0,0.0
381,Bilma,NE,2020-02-22 20:20:06,18.69,12.92,71.37,14,100,13.78,overcast clouds,0.0,0.0
382,Barguzin,RU,2020-02-22 20:20:06,53.62,109.62,14.14,96,100,2.48,light snow,0.0,0.75
383,Calabozo,VE,2020-02-22 20:20:06,8.92,-67.43,97.07,29,100,4.97,overcast clouds,0.0,0.0
384,Saint-Joseph,RE,2020-02-22 20:20:07,-21.37,55.62,75.2,73,100,6.93,overcast clouds,0.0,0.0
385,Lebedyn,UA,2020-02-22 20:20:07,50.59,34.48,31.37,90,75,7.47,broken clouds,0.0,0.0
386,Bengkulu,ID,2020-02-22 20:18:31,-3.8,102.27,73.42,89,2,4.56,clear sky,0.0,0.0
387,Concordia,AR,2020-02-22 20:20:07,-31.39,-58.02,75.2,50,0,11.41,clear sky,0.0,0.0
388,Beyneu,KZ,2020-02-22 20:20:07,45.32,55.2,34.41,78,61,9.89,broken clouds,0.0,0.0
389,Meulaboh,ID,2020-02-22 20:20:08,4.14,96.13,83.14,69,93,5.21,light rain,1.13,0.0
390,Caluquembe,AO,2020-02-22 20:20:08,-13.78,14.68,65.39,83,94,5.3,overcast clouds,0.0,0.0
391,Macheng,CN,2020-02-22 20:20:08,31.18,115.03,52.97,58,73,3.65,broken clouds,0.0,0.0
392,Birin,NP,2020-02-22 20:20:08,26.89,88.07,45.75,80,0,5.88,clear sky,0.0,0.0
393,Nanakuli,US,2020-02-22 20:20:08,21.39,-158.15,77.0,88,40,3.36,scattered clouds,0.0,0.0
394,Henties Bay,NA,2020-02-22 20:20:09,-22.12,14.28,64.99,87,0,1.99,clear sky,0.0,0.0
395,El Rusio,HN,2020-02-22 20:20:09,14.47,-86.37,86.41,30,0,11.1,clear sky,0.0,0.0
396,Reconquista,AR,2020-02-22 20:20:09,-29.15,-59.65,79.81,27,0,9.42,clear sky,0.0,0.0
397,Salalah,OM,2020-02-22 20:20:09,17.02,54.09,75.2,73,20,3.36,few clouds,0.0,0.0
398,Ostersund,SE,2020-02-22 20:20:09,63.18,14.64,33.01,67,67,11.41,broken clouds,0.0,0.0
399,Twin Falls,US,2020-02-22 20:17:34,42.56,-114.46,53.01,38,1,10.29,clear sky,0.0,0.0
400,Fort Nelson,CA,2020-02-22 20:17:27,58.81,-122.7,37.4,32,20,19.46,few clouds,0.0,0.0
401,Asau,RO,2020-02-22 20:20:10,46.43,26.4,34.0,80,0,8.05,clear sky,0.0,0.0
402,Bowen,AU,2020-02-22 20:20:10,-20.02,148.23,75.99,94,90,4.7,overcast clouds,0.0,0.0
403,Kharovsk,RU,2020-02-22 20:20:10,59.96,40.19,33.76,83,100,20.98,overcast clouds,0.0,0.0
404,Aswan,EG,2020-02-22 20:20:11,24.09,32.91,64.4,31,1,13.87,clear sky,0.0,0.0
405,Anyang,CN,2020-02-22 20:20:11,36.1,114.33,42.33,46,0,12.21,clear sky,0.0,0.0
406,Warwick,US,2020-02-22 20:17:20,41.7,-71.42,48.2,26,5,11.41,clear sky,0.0,0.0
407,Kahului,US,2020-02-22 20:19:08,20.89,-156.47,75.2,64,40,23.06,scattered clouds,0.0,0.0
408,Yuzhou,CN,2020-02-22 20:20:11,34.16,113.46,41.0,56,5,2.24,clear sky,0.0,0.0
409,Berlevag,NO,2020-02-22 20:20:12,70.86,29.09,30.2,74,0,25.28,clear sky,0.0,0.0
410,Panacan,PH,2020-02-22 20:20:12,9.25,118.41,79.39,80,6,28.1,light rain,0.13,0.0
411,Trairi,BR,2020-02-22 20:20:12,-3.28,-39.27,73.02,96,100,1.9,light rain,0.19,0.0
412,Dingle,PH,2020-02-22 20:18:18,11.0,122.67,70.03,90,0,11.03,clear sky,0.0,0.0
413,Bonavista,CA,2020-02-22 20:20:13,48.65,-53.11,25.0,70,85,11.99,overcast clouds,0.0,0.0
414,Laukaa,RU,2020-02-22 20:20:13,58.74,29.85,38.16,90,100,21.14,light rain,1.44,0.0
415,Saint Anthony,US,2020-02-22 20:20:13,45.02,-93.22,46.0,52,1,10.29,clear sky,0.0,0.0
416,Talca,CL,2020-02-22 20:20:13,-35.43,-71.67,86.0,42,0,5.82,clear sky,0.0,0.0
417,Ribas Do Rio Pardo,BR,2020-02-22 20:20:13,-20.44,-53.76,76.78,77,68,8.61,broken clouds,0.0,0.0
418,Erenhot,CN,2020-02-22 20:20:14,43.65,111.98,20.79,70,91,15.39,overcast clouds,0.0,0.0
419,Charcas,MX,2020-02-22 20:20:14,23.13,-101.12,71.56,32,19,5.23,few clouds,0.0,0.0
420,Requena,ES,2020-02-22 20:20:14,39.49,-1.1,53.6,93,74,1.12,broken clouds,0.0,0.0
421,Caimito,CO,2020-02-22 20:20:14,8.81,-75.41,91.4,55,40,14.99,scattered clouds,0.0,0.0
422,Pevek,RU,2020-02-22 20:20:14,69.7,170.31,-12.15,98,100,10.78,light snow,0.0,0.13
423,Wuzhou,CN,2020-02-22 20:20:15,23.48,111.32,62.15,87,9,2.46,clear sky,0.0,0.0
424,Atbasar,KZ,2020-02-22 20:20:15,51.8,68.33,16.14,95,84,4.94,broken clouds,0.0,0.0
425,Nuuk,GL,2020-02-22 20:18:47,64.18,-51.72,14.0,72,90,13.87,light shower snow,0.0,0.0
426,Iralaya,HN,2020-02-22 20:20:15,15.0,-83.23,82.4,74,75,11.41,light rain,0.0,0.0
427,Allende,MX,2020-02-22 20:20:15,25.28,-100.02,60.8,48,40,5.82,scattered clouds,0.0,0.0
428,Yalvac,TR,2020-02-22 20:20:16,38.3,31.18,29.37,97,100,7.52,light snow,0.0,1.06
429,Paraiso,CR,2020-02-22 20:20:16,9.84,-83.87,82.4,44,20,20.8,few clouds,0.0,0.0
430,Shimoda,JP,2020-02-22 20:20:16,34.67,138.95,51.01,62,0,5.01,clear sky,0.0,0.0
431,Vangaindrano,MG,2020-02-22 20:20:16,-23.35,47.6,72.55,96,100,2.75,light rain,1.5,0.0
432,Hecun,CN,2020-02-22 20:20:17,36.53,114.11,39.07,41,0,4.05,clear sky,0.0,0.0
433,Mogadishu,SO,2020-02-22 20:18:05,2.04,45.34,81.72,85,0,23.51,clear sky,0.0,0.0
434,San Pedro De Uraba,CO,2020-02-22 20:20:17,8.28,-76.38,86.0,70,40,20.8,scattered clouds,0.0,0.0
435,Yilan,TW,2020-02-22 20:20:17,24.76,121.75,64.0,82,75,13.87,light intensity drizzle,0.0,0.0
436,Nsanje,MW,2020-02-22 20:20:17,-16.92,35.26,76.15,86,100,4.72,overcast clouds,0.0,0.0
437,Abalak,RU,2020-02-22 20:20:18,58.13,68.59,7.29,97,44,2.86,scattered clouds,0.0,0.0
438,Heishan,CN,2020-02-22 20:20:18,41.69,122.11,28.09,58,0,8.93,clear sky,0.0,0.0
439,Braganca,BR,2020-02-22 20:20:18,-1.05,-46.77,78.46,92,59,2.8,light rain,0.44,0.0
440,Lorengau,PG,2020-02-22 20:20:18,-2.02,147.27,82.4,75,52,7.67,broken clouds,0.0,0.0
441,Vestmannaeyjar,IS,2020-02-22 20:20:19,63.44,-20.27,34.2,60,100,5.57,overcast clouds,0.0,0.0
442,Edd,ER,2020-02-22 20:20:19,13.93,41.69,77.92,69,0,6.17,clear sky,0.0,0.0
443,Susangerd,IR,2020-02-22 20:17:13,31.56,48.18,60.8,72,0,2.24,clear sky,0.0,0.0
444,Nambucca Heads,AU,2020-02-22 20:20:19,-30.65,153.0,66.2,93,90,5.82,overcast clouds,0.0,0.0
445,Richards Bay,ZA,2020-02-22 20:20:19,-28.78,32.04,80.24,82,100,29.48,moderate rain,3.81,0.0
446,Korop,UA,2020-02-22 20:20:20,51.57,32.96,34.12,80,76,15.66,broken clouds,0.0,0.0
447,Ryotsu,JP,2020-02-22 20:20:20,38.08,138.43,41.0,80,75,12.75,light rain,0.0,0.0
448,Nouadhibou,MR,2020-02-22 20:20:20,20.93,-17.03,64.4,77,20,16.11,few clouds,0.0,0.0
449,Kungalv,SE,2020-02-22 20:20:20,57.87,11.98,42.01,74,20,21.92,few clouds,0.0,0.0
450,Kiunga,PG,2020-02-22 20:20:20,-6.12,141.29,73.89,99,99,2.42,light rain,0.13,0.0
451,Madisonville,US,2020-02-22 20:15:37,37.33,-87.5,51.8,27,1,6.93,clear sky,0.0,0.0
452,Rocha,UY,2020-02-22 20:20:21,-34.48,-54.33,64.8,60,32,9.98,scattered clouds,0.0,0.0
453,Perelyub,RU,2020-02-22 20:20:21,51.87,50.37,17.17,91,0,7.63,clear sky,0.0,0.0
454,Corinto,GR,2020-02-22 20:20:22,37.94,22.96,46.4,81,40,3.36,scattered clouds,0.0,0.0
455,Lasa,IT,2020-02-22 20:20:22,46.62,10.7,42.8,69,5,8.05,clear sky,0.0,0.0
456,Port Moresby,PG,2020-02-22 20:20:22,-9.44,147.18,78.8,88,40,3.36,scattered clouds,0.0,0.0
457,Slonim,BY,2020-02-22 20:20:22,53.09,25.32,42.78,60,100,16.04,overcast clouds,0.0,0.0
458,Port Augusta,AU,2020-02-22 20:20:23,-32.5,137.77,62.01,87,0,5.82,clear sky,0.0,0.0
459,Camacha,PT,2020-02-22 20:19:33,33.08,-16.33,64.4,88,40,27.51,scattered clouds,0.0,0.0
460,Amapa,BR,2020-02-22 20:20:23,1.0,-52.0,78.84,86,65,2.82,light rain,1.63,0.0
461,Suntar,RU,2020-02-22 20:20:23,62.14,117.63,-5.48,97,90,1.28,overcast clouds,0.0,0.0
462,Mayo,US,2020-02-22 20:20:23,38.89,-76.51,55.99,15,1,8.05,clear sky,0.0,0.0
463,Murakami,JP,2020-02-22 20:20:24,38.23,139.48,38.89,60,100,26.84,light snow,0.0,1.38
464,Quatre Cocos,MU,2020-02-22 20:20:24,-20.21,57.76,77.0,88,40,2.24,scattered clouds,0.0,0.0
465,Arman,RU,2020-02-22 20:20:24,59.7,150.17,0.1,96,100,5.19,light snow,0.0,0.19
466,Cross Lanes,US,2020-02-22 20:15:36,38.42,-81.79,53.01,15,1,7.31,clear sky,0.0,0.0
467,Lowestoft,GB,2020-02-22 20:20:24,52.48,1.75,50.0,66,100,14.99,overcast clouds,0.0,0.0
468,Torbay,CA,2020-02-22 20:18:41,47.67,-52.73,26.01,62,20,18.34,few clouds,0.0,0.0
469,Taitung,TW,2020-02-22 20:20:25,22.76,121.14,50.63,98,100,2.98,light rain,0.13,0.0
470,Nome,US,2020-02-22 20:20:25,64.5,-165.41,-20.2,82,1,3.24,clear sky,0.0,0.0
471,Atikokan,CA,2020-02-22 20:20:25,48.76,-91.62,34.45,87,20,8.28,few clouds,0.0,0.0
472,Sao Joao Da Barra,BR,2020-02-22 20:15:30,-21.64,-41.05,80.6,69,90,18.34,overcast clouds,0.0,0.0
473,Henderson,US,2020-02-22 20:20:26,36.04,-114.98,57.0,62,40,8.05,moderate rain,0.0,0.0
474,Isangel,VU,2020-02-22 20:18:07,-19.55,169.27,73.4,94,20,16.35,few clouds,0.0,0.0
475,Nyurba,RU,2020-02-22 20:20:26,63.28,118.33,-6.21,98,100,1.48,overcast clouds,0.0,0.0
476,Nizwa,OM,2020-02-22 20:20:26,22.93,57.53,64.85,72,89,2.53,overcast clouds,0.0,0.0
477,Guerrero Negro,MX,2020-02-22 20:16:25,27.98,-114.06,63.82,63,100,14.65,overcast clouds,0.0,0.0
478,Horconcitos,PA,2020-02-22 20:20:27,8.47,-81.8,80.91,48,73,11.39,broken clouds,0.0,0.0
479,Oxapampa,PE,2020-02-22 20:20:27,-10.58,-75.4,57.02,99,100,2.98,moderate rain,5.06,0.0
480,Antropovo,RU,2020-02-22 20:20:27,58.4,43.01,31.89,84,100,16.46,overcast clouds,0.0,0.0
481,Virginia Beach,US,2020-02-22 20:17:37,36.85,-75.98,52.0,24,40,6.93,scattered clouds,0.0,0.0
482,Itacoatiara,BR,2020-02-22 20:20:27,-3.14,-58.44,82.24,92,100,2.57,moderate rain,3.69,0.0
483,De Aar,ZA,2020-02-22 20:20:28,-30.65,24.01,66.56,52,0,26.91,clear sky,0.0,0.0
484,Hargeysa,SO,2020-02-22 20:20:28,9.56,44.06,62.2,92,3,15.46,clear sky,0.0,0.0
485,Imeni Poliny Osipenko,RU,2020-02-22 20:18:37,52.42,136.49,-5.75,93,0,4.9,clear sky,0.0,0.0
486,Iskateley,RU,2020-02-22 20:20:28,67.68,53.15,31.21,87,100,23.31,overcast clouds,0.0,0.0
487,Coahuayana,MX,2020-02-22 20:20:28,18.73,-103.68,86.0,42,40,9.17,scattered clouds,0.0,0.0
488,Aykhal,RU,2020-02-22 20:20:29,66.0,111.5,-7.6,83,99,4.47,overcast clouds,0.0,0.0
489,Weligama,LK,2020-02-22 20:20:29,5.97,80.42,78.35,73,100,10.22,overcast clouds,0.0,0.0
490,Makokou,GA,2020-02-22 20:20:29,0.57,12.86,73.76,93,100,1.83,light rain,0.81,0.0
491,Sabratah,LY,2020-02-22 20:17:46,32.79,12.49,59.02,67,95,11.45,overcast clouds,0.0,0.0
492,Lichinga,MZ,2020-02-22 20:20:30,-13.31,35.24,72.37,92,74,2.8,broken clouds,0.0,0.0
493,Vallenar,CL,2020-02-22 20:20:30,-28.57,-70.76,71.51,56,0,10.47,clear sky,0.0,0.0
494,Vardo,NO,2020-02-22 20:20:30,70.37,31.11,33.4,82,5,25.99,clear sky,0.0,0.0
495,Kouango,CF,2020-02-22 20:20:30,4.99,19.96,84.61,23,59,2.28,broken clouds,0.0,0.0
496,Verkhnyaya Inta,RU,2020-02-22 20:20:31,65.98,60.31,30.42,86,100,18.28,light snow,0.0,0.25
497,Emerald,AU,2020-02-22 20:20:31,-23.53,148.17,73.4,94,90,9.17,overcast clouds,0.0,0.0
498,Veraval,IN,2020-02-22 20:20:31,20.9,70.37,69.06,27,0,8.86,clear sky,0.0,0.0
499,Bayanday,RU,2020-02-22 20:20:31,53.07,105.51,11.68,96,100,5.39,light snow,0.0,0.25
500,Miraflores,MX,2020-02-22 20:20:31,19.22,-98.81,80.6,28,20,6.93,few clouds,0.0,0.0
501,Shashi,CN,2020-02-22 20:20:32,30.31,112.24,54.0,76,100,5.03,overcast clouds,0.0,0.0
502,Xuanzhou,CN,2020-02-22 20:20:32,30.95,118.76,43.38,75,0,9.17,clear sky,0.0,0.0
503,Kushmurun,KZ,2020-02-22 20:20:32,52.45,64.63,19.76,96,85,3.6,light snow,0.0,0.13
504,Krasnoslobodsk,RU,2020-02-22 20:20:32,48.71,44.57,30.2,100,90,13.42,fog,0.0,0.0
505,Kamenka,RU,2020-02-22 20:20:33,51.32,42.77,30.0,93,100,8.99,overcast clouds,0.0,0.0
506,Quime,BO,2020-02-22 20:20:33,-16.98,-67.22,58.41,82,100,6.13,light rain,2.56,0.0
507,Evansville,US,2020-02-22 20:18:44,37.97,-87.56,51.8,33,1,10.29,clear sky,0.0,0.0
508,Turukhansk,RU,2020-02-22 20:20:33,65.82,87.98,4.78,97,100,6.11,overcast clouds,0.0,0.0
509,Bondo,CD,2020-02-22 20:20:33,3.81,23.69,77.9,32,67,2.35,broken clouds,0.0,0.0
510,Prieska,ZA,2020-02-22 20:20:33,-29.66,22.75,76.33,28,0,22.57,clear sky,0.0,0.0
511,Bonthe,SL,2020-02-22 20:20:34,7.53,-12.51,81.18,84,62,7.2,broken clouds,0.0,0.0
512,Burgos,ES,2020-02-22 20:20:34,42.34,-3.71,48.99,60,0,5.82,clear sky,0.0,0.0
513,Araouane,ML,2020-02-22 20:20:34,18.9,-3.53,80.92,9,85,10.56,overcast clouds,0.0,0.0
514,Chippewa Falls,US,2020-02-22 20:20:34,44.94,-91.39,46.4,48,1,9.17,clear sky,0.0,0.0
515,Kirakira,SB,2020-02-22 20:19:32,-10.45,161.92,79.99,82,0,4.76,clear sky,0.0,0.0
516,Harper,LR,2020-02-22 20:19:25,4.38,-7.72,78.24,93,98,4.65,overcast clouds,0.0,0.0
517,Lavrentiya,RU,2020-02-22 20:20:35,65.58,-171.0,-17.19,96,33,5.91,scattered clouds,0.0,0.0
518,Cajati,BR,2020-02-22 20:20:35,-24.74,-48.12,66.88,94,100,3.29,light rain,0.5,0.0
519,Point Pleasant,US,2020-02-22 20:20:36,40.08,-74.07,51.01,16,1,13.87,clear sky,0.0,0.0
520,Riyadh,SA,2020-02-22 20:16:15,24.69,46.72,68.0,34,0,8.05,clear sky,0.0,0.0
521,Clarence Town,AU,2020-02-22 20:20:36,-32.58,151.78,68.0,88,100,3.36,overcast clouds,0.0,0.0
522,Ovsyanka,RU,2020-02-22 20:20:36,55.96,92.55,23.0,85,75,2.46,light snow,0.0,0.0
523,Sao Jose Da Coroa Grande,BR,2020-02-22 20:20:36,-8.9,-35.15,82.13,80,70,14.45,broken clouds,0.0,0.0
524,Makakilo City,US,2020-02-22 20:19:20,21.35,-158.09,77.0,88,40,3.36,scattered clouds,0.0,0.0
525,Korla,CN,2020-02-22 20:20:37,41.76,86.15,25.97,49,0,2.86,clear sky,0.0,0.0
526,Northam,GB,2020-02-22 20:20:37,51.03,-4.22,51.01,76,40,11.41,scattered clouds,0.0,0.0
527,Talakan,RU,2020-02-22 20:20:37,50.32,130.37,-8.82,98,25,3.13,scattered clouds,0.0,0.0
528,Vondrozo,MG,2020-02-22 20:20:37,-22.82,47.28,72.43,96,92,1.77,light rain,1.38,0.0
529,Kaputa,ZM,2020-02-22 20:20:38,-8.47,29.66,67.33,89,100,1.72,overcast clouds,0.0,0.0
530,Peniche,PT,2020-02-22 20:19:33,39.36,-9.38,64.99,82,0,3.36,clear sky,0.0,0.0
531,Altamira,BR,2020-02-22 20:20:38,-3.2,-52.21,82.4,78,75,4.7,broken clouds,0.0,0.0
532,Dergachi,RU,2020-02-22 20:20:38,51.23,48.77,20.43,90,100,8.21,overcast clouds,0.0,0.0
533,Ostrovnoy,RU,2020-02-22 20:20:38,68.05,39.51,33.8,95,100,35.61,light snow,0.0,0.31
534,Aklavik,CA,2020-02-22 20:20:39,68.22,-135.01,-0.4,84,90,6.93,light snow,0.0,0.0
535,Aquidauana,BR,2020-02-22 20:20:39,-20.47,-55.79,79.29,67,0,5.99,clear sky,0.0,0.0
536,Krasnokamensk,RU,2020-02-22 20:20:39,50.1,118.04,3.92,96,100,2.3,overcast clouds,0.0,0.0
537,Mujiayingzi,CN,2020-02-22 20:20:39,42.12,118.78,22.3,50,95,6.33,overcast clouds,0.0,0.0
538,Takaungu,KE,2020-02-22 20:20:39,-3.68,39.86,82.4,83,20,6.93,few clouds,0.0,0.0
539,Lethem,GY,2020-02-22 20:20:40,3.38,-59.8,98.51,24,69,10.92,broken clouds,0.0,0.0
540,Xining,CN,2020-02-22 20:19:31,36.62,101.77,26.65,25,0,5.79,clear sky,0.0,0.0
541,Oistins,BB,2020-02-22 20:20:40,13.07,-59.53,82.4,65,20,10.29,few clouds,0.0,0.0
542,Touros,BR,2020-02-22 20:16:42,-5.2,-35.46,84.2,74,40,13.87,scattered clouds,0.0,0.0
543,Laramie,US,2020-02-22 20:20:41,41.31,-105.59,54.0,23,1,21.92,clear sky,0.0,0.0
544,Gisborne,NZ,2020-02-22 20:20:41,-38.65,178.0,64.0,70,47,11.99,light rain,0.88,0.0
545,Ottawa,CA,2020-02-22 20:19:37,45.41,-75.7,41.0,51,40,16.11,scattered clouds,0.0,0.0
546,Zhigansk,RU,2020-02-22 20:20:41,66.77,123.37,-10.16,96,100,7.16,overcast clouds,0.0,0.0
547,Sorland,NO,2020-02-22 20:20:41,67.67,12.69,40.95,77,96,19.48,light rain,0.75,0.0
548,Broome,US,2020-02-22 20:19:42,42.25,-75.83,44.01,40,1,13.87,clear sky,0.0,0.0
549,Hervey Bay,AU,2020-02-22 20:20:42,-25.3,152.85,77.0,69,75,9.17,broken clouds,0.0,0.0
550,Zvishavane,ZW,2020-02-22 20:20:42,-20.33,30.07,71.82,83,35,2.33,scattered clouds,0.0,0.0
551,Kozhva,RU,2020-02-22 20:20:42,65.11,57.05,31.87,92,100,13.38,light snow,0.0,0.13
552,Finote Selam,ET,2020-02-22 20:20:42,10.7,37.27,67.75,26,95,2.24,overcast clouds,0.0,0.0
553,Sherbakul,RU,2020-02-22 20:20:43,54.63,72.4,30.2,80,75,4.47,light shower snow,0.0,0.0
554,Lagoa Vermelha,BR,2020-02-22 20:20:43,-28.21,-51.53,65.46,58,0,5.28,clear sky,0.0,0.0
555,Wasilla,US,2020-02-22 20:20:43,61.58,-149.44,23.0,85,90,11.41,overcast clouds,0.0,0.0
556,Ossora,RU,2020-02-22 20:20:43,59.24,163.07,-9.67,80,9,1.63,clear sky,0.0,0.0
557,Tooele,US,2020-02-22 20:20:44,40.53,-112.3,48.0,48,75,3.53,broken clouds,0.0,0.0
558,Namibe,AO,2020-02-22 20:20:39,-15.2,12.15,75.34,79,100,15.39,overcast clouds,0.0,0.0
559,Stryn,NO,2020-02-22 20:20:44,61.9,6.72,39.99,76,95,5.99,light snow,0.0,1.38
560,Matara,LK,2020-02-22 20:20:44,5.95,80.54,78.35,73,100,10.22,overcast clouds,0.0,0.0
561,Mana,GF,2020-02-22 20:20:45,5.66,-53.78,81.18,76,100,6.67,light rain,0.19,0.0
562,Mandalgovi,MN,2020-02-22 20:20:45,45.76,106.27,19.24,58,100,9.66,overcast clouds,0.0,0.0
563,Thinadhoo,MV,2020-02-22 20:20:45,0.53,72.93,82.49,80,100,14.65,overcast clouds,0.0,0.0
564,Samarai,PG,2020-02-22 20:20:45,-10.62,150.67,79.27,86,87,3.29,overcast clouds,0.0,0.0
565,Sao Joao Do Paraiso,BR,2020-02-22 20:20:46,-15.31,-42.01,74.5,86,100,2.51,light rain,1.25,0.0
566,Whitehorse,CA,2020-02-22 20:18:24,60.72,-135.05,26.01,62,75,6.93,broken clouds,0.0,0.0
567,Zambezi,ZM,2020-02-22 20:20:46,-13.54,23.1,69.71,92,100,1.63,moderate rain,8.38,0.0
568,Aripuana,BR,2020-02-22 20:20:46,-9.17,-60.63,80.94,80,100,1.61,light rain,0.69,0.0
569,Jutai,BR,2020-02-22 20:20:46,-5.18,-68.9,84.96,70,65,4.76,light rain,1.38,0.0
570,Dori,BF,2020-02-22 20:20:47,14.04,-0.03,81.43,12,0,10.58,clear sky,0.0,0.0
571,Chicama,PE,2020-02-22 20:17:05,-7.84,-79.15,77.0,78,20,9.17,few clouds,0.0,0.0
572,Noblesville,US,2020-02-22 20:20:47,40.05,-86.01,50.0,36,1,18.34,clear sky,0.0,0.0
573,San Roque,ES,2020-02-22 20:20:47,36.21,-5.38,59.0,77,1,28.86,clear sky,0.0,0.0
